[
  {
    "id": 1,
    "name": "Father Joe’s Village Shelter",
    "type": "Shelter",
    "address": "1501 Imperial Ave, San Diego, CA 92101",
    "lat": 32.7075,
    "lng": -117.1528,
    "hours": "24/7",
    "contact": "(619) 233-8500",
    "available_beds": 12,
    "capacity": 150
  },
  {
    "id": 2,
    "name": "Neil Good Day Center",
    "type": "Resource Center",
    "address": "299 17th St, San Diego, CA 92101",
    "lat": 32.7109,
    "lng": -117.1495,
    "hours": "7:00 AM – 3:00 PM",
    "contact": "(619) 233-8500",
    "available_beds": 0,
    "capacity": 0
  },
  {
    "id": 3,
    "name": "San Diego Rescue Mission",
    "type": "Shelter",
    "address": "120 Elm St, San Diego, CA 92101",
    "lat": 32.7204,
    "lng": -117.1653,
    "hours": "24/7",
    "contact": "(619) 687-3720",
    "available_beds": 5,
    "capacity": 100
  },
  {
    "id": 4,
    "name": "Alpha Project Bridge Shelter",
    "type": "Shelter",
    "address": "16th St & Newton Ave, San Diego, CA 92101",
    "lat": 32.7049,
    "lng": -117.1492,
    "hours": "24/7",
    "contact": "(619) 542-1877",
    "available_beds": 8,
    "capacity": 200
  },
  {
    "id": 5,
    "name": "PATH San Diego",
    "type": "Shelter",
    "address": "1250 6th Ave, San Diego, CA 92101",
    "lat": 32.7171,
    "lng": -117.1592,
    "hours": "24/7",
    "contact": "(619) 810-8600",
    "available_beds": 2,
    "capacity": 100
  }
]
